{
  "type": "FeatureCollection",
  "features": [
    {
      "type": "Feature",
      "properties": {
        "title": "ICE - Shooting",
        "category": "Report",
        "description": "Jan 24th 2026 | Alex Pretti | Filming"
      },
      "geometry": {
        "type": "Point",
        "coordinates": [-93.27752039215825, 44.9554644308971]
      }
    },
    {
      "type": "Feature",
      "properties": {
        "title": "ICE - Shooting",
        "category": "Report",
        "description": "Jan 7th 2026 | Renee Good | Going Home"
      },
      "geometry": {
        "type": "Point",
        "coordinates": [-93.26753818343062, 44.94132192256501]
      }
    },
    {
      "type": "Feature",
      "properties": {
        "title": "Police Killing - Archive",
        "category": "Report",
        "description": "May 2020 | George Floyd"
      },
      "geometry": {
        "type": "Point",
        "coordinates": [-93.26247511854801, 44.935913110317]
      }
    },
    {
      "type": "Feature",
      "properties": {
        "title": "User Reported - Citizen Detention",
        "category": "Report",
        "description": "Unknown Individual Detention"
      },
      "geometry": {
        "type": "Point",
        "coordinates": [-76.91699556110446, 39.31156542046223]
      }
    },
    {
      "type": "Feature",
      "properties": {
        "title": "News Reported - ICE Shooting",
        "category": "Report",
        "description": "Jan 27th 2026 | Developing Situation | Critical Condition"
      },
      "geometry": {
        "type": "Point",
        "coordinates": [-111.186, 31.705]
      }
    },
    {
      "type": "Feature",
      "properties": {
        "title": "ICE Shooting",
        "category": "Report",
        "description": "Dec 31st 2025 | Keith Porter | Sitting at Apartment Complex"
      },
      "geometry": {
        "type": "Point",
        "coordinates": [-118.557946, 34.235245]
      }
    },
    {
      "type": "Feature",
      "properties": {
        "title": "ICE - Attempt to Forcefully to Enter",
        "category": "Report",
        "description": "Jan 27th 2026 | Ecuadorian Consulate"
      },
      "geometry": {
        "type": "Point",
        "coordinates": [-93.247580, 45.011237]
      }
    }
  ]
}
